{"zipcodes": {"89120": [{"full_address": "5680 S Pecos Rd\nSoutheast\nLas Vegas, NV 89120", "hygiene": 0, "rest_id": "P0Bf-1S_A_g7IbdGuAnG1Q", "categories": ["Food", "Gas & Service Stations", "Delis", "Convenience Stores", "Automotive"], "city": "Las Vegas", "review_count": 3, "name": "City Express - Sinclair", "longitude": -115.100466, "reviews": [{"text": "This is a Sinclair Gas Station and Convenience Store that has a full service deli inside. They have great food, and have excellent service. I regularly order take out in advance for large meetings. Thank you Lisa for great service.", "review_stars": 5, "review_votes": {"funny": 0, "useful": 0, "cool": 0}}, {"text": "They make food here! Yes it's a deli inside they also sale beer. They provide you with great staff who will educate you on meats and cheese if you have never had them. It's a nice little spot to stop in and get gas and also coffee or cups of Ice and we all know I love Ice. I give it five stars total.", "review_stars": 5, "review_votes": {"funny": 4, "useful": 4, "cool": 2}}, {"text": "I've been to this location several times.  At least 3 out of 4 visits I walk out with a smile due to the customer service and friendly employees. Great job!", "review_stars": 4, "review_votes": {"funny": 0, "useful": 0, "cool": 0}}], "state": "NV", "stars": 5.0, "latitude": 36.086743}], "85282": [{"full_address": "2195 E Southern Ave\nTempe, AZ 85282", "rest_id": "ZOzY--xBNSs-QSukzLn5kA", "categories": ["Automotive", "Fast Food", "Gas & Service Stations"], "city": "Tempe", "review_count": 0, "name": "QuikTrip", "longitude": -111.8922424, "reviews": [], "state": "AZ", "stars": 4.5, "latitude": 33.3928412}], "85255": [{"full_address": "7605 E Pinnacle Peak Rd\nScottsdale, AZ 85255", "rest_id": "RC11zxI3ZW2UPFeXpGofdA", "categories": ["Automotive", "Italian"], "city": "Scottsdale", "review_count": 0, "name": "3 Tomatoes & a Mozzarella", "longitude": -111.9174872, "reviews": [], "state": "AZ", "stars": 3.5, "latitude": 33.6986497}], "89101": [{"full_address": "329 Las Vegas Blvd N\nDowntown\nLas Vegas, NV 89101", "hygiene": 0, "rest_id": "yRnl7MxYk1z18UW-g18clA", "categories": ["Food", "Gas & Service Stations", "Fast Food", "Convenience Stores", "Automotive"], "city": "Las Vegas", "review_count": 2, "name": "Pump N Snack", "longitude": -115.138204, "reviews": [{"text": "This place is where I go whenever I am filling up the tank. It's got some of the cheapest prices in the valley. It has the unfortunate location right next to the 7-11 so you don't really see this place because the sign is small and the place is pretty dimly lit.\n\nThey also run a really great special of $5.99 for a 6-pack of coronas. \nThere's not really a huge selection of snacks & drinks but what they do have is really cheap. \n\nBut as bad as it sounds, some times I just don't want to stop there because there is ALWAYS at least on homeless person hanging around the parking lot, and dealing with it EVERY time gets old.", "review_stars": 3, "review_votes": {"funny": 0, "useful": 2, "cool": 0}}, {"text": "It's a dirty location with a foul smell of piss inside. From my short visit it's apparent their main clientele are transient.", "review_stars": 1, "review_votes": {"funny": 0, "useful": 0, "cool": 0}}], "state": "NV", "stars": 3.0, "latitude": 36.172375}], "85354": [{"full_address": "41101 W Indian School Road\nTonopah, AZ 85354", "rest_id": "C9V_hoXBqc9ChMp03tU_Zw", "categories": ["Automotive", "Auto Repair"], "city": "Tonopah", "review_count": 0, "name": "Tonopah Family Restrauant", "longitude": -112.937635, "reviews": [], "state": "AZ", "stars": 4.0, "latitude": 33.492877}], "85260": [{"full_address": "9393 E Bell Rd\nScottsdale, AZ 85260", "rest_id": "EHIZFzQQ_mjzwyjcaToPtQ", "categories": ["Automotive", "Car Wash", "American (New)", "Barbeque"], "city": "Scottsdale", "review_count": 0, "name": "Tom's Thumb Fresh Market", "longitude": -111.879257202148, "reviews": [], "state": "AZ", "stars": 4.0, "latitude": 33.6393699645996}]}}